{
    "data": [
        {
            "id": "3230671",
            "gmt": "1",
            "city_id": "7107",
            "iata_code": "SXB",
            "country_iso2": "FR",
            "geoname_id": "2973783",
            "latitude": "48.583148",
            "longitude": "7.747882",
            "city_name": "Strasbourg",
            "timezone": "Europe/Paris"
        },
        {
            "id": "3230711",
            "gmt": "1",
            "city_id": "7147",
            "iata_code": "SYT",
            "country_iso2": "FR",
            "geoname_id": "2988592",
            "latitude": "46.4",
            "longitude": "4.033333",
            "city_name": "Saint Yan",
            "timezone": "Europe/Paris"
        },
        {
            "id": "3230976",
            "gmt": "1",
            "city_id": "7412",
            "iata_code": "TLN",
            "country_iso2": "FR",
            "geoname_id": "3008432",
            "latitude": "43.120541",
            "longitude": "6.128639",
            "city_name": "Hyeres",
            "timezone": "Europe/Paris"
        },
        {
            "id": "3230981",
            "gmt": "1",
            "city_id": "7417",
            "iata_code": "TLS",
            "country_iso2": "FR",
            "geoname_id": "2972315",
            "latitude": "43.63007",
            "longitude": "1.374321",
            "city_name": "Toulouse",
            "timezone": "Europe/Paris"
        },
        {
            "id": "3231017",
            "gmt": "1",
            "city_id": "7453",
            "iata_code": "TNF",
            "country_iso2": "FR",
            "geoname_id": "2988507",
            "latitude": "48.75083",
            "longitude": "2.113056",
            "city_name": "Toussus-Le-Noble",
            "timezone": "Europe/Paris"
        },
        {
            "id": "3231155",
            "gmt": "1",
            "city_id": "7591",
            "iata_code": "TUF",
            "country_iso2": "FR",
            "geoname_id": "2972191",
            "latitude": "47.394144",
            "longitude": "0.68484",
            "city_name": "Tours",
            "timezone": "Europe/Paris"
        },
        {
            "id": "3231279",
            "gmt": "1",
            "city_id": "7715",
            "iata_code": "UIP",
            "country_iso2": "FR",
            "geoname_id": "2984701",
            "latitude": "47.974445",
            "longitude": "-4.170833",
            "city_name": "Quimper",
            "timezone": "Europe/Paris"
        },
        {
            "id": "3231361",
            "gmt": "1",
            "city_id": "7797",
            "iata_code": "URO",
            "country_iso2": "FR",
            "geoname_id": "2982652",
            "latitude": "49.38861",
            "longitude": "1.1875",
            "city_name": "Rouen",
            "timezone": "Europe/Paris"
        },
        {
            "id": "3231419",
            "gmt": "1",
            "city_id": "7855",
            "iata_code": "VAF",
            "country_iso2": "FR",
            "geoname_id": "2971053",
            "latitude": "44.933393",
            "longitude": "4.89236",
            "city_name": "Valence",
            "timezone": "Europe/Paris"
        },
        {
            "id": "3231478",
            "gmt": "1",
            "city_id": "7914",
            "iata_code": "VHY",
            "country_iso2": "FR",
            "geoname_id": "2969392",
            "latitude": "46.165558",
            "longitude": "3.409722",
            "city_name": "Vichy",
            "timezone": "Europe/Paris"
        },
        {
            "id": "3231528",
            "gmt": "1",
            "city_id": "7964",
            "iata_code": "VNE",
            "country_iso2": "FR",
            "geoname_id": "2970777",
            "latitude": "47.65",
            "longitude": "-2.766667",
            "city_name": "Vannes",
            "timezone": "Europe/Paris"
        },
        {
            "id": "3231572",
            "gmt": "1",
            "city_id": "8008",
            "iata_code": "VTL",
            "country_iso2": "FR",
            "geoname_id": "2967845",
            "latitude": "48.2",
            "longitude": "5.95",
            "city_name": "Vittel",
            "timezone": "Europe/Paris"
        },
        {
            "id": "3231842",
            "gmt": "1",
            "city_id": "8278",
            "iata_code": "XCC",
            "country_iso2": "FR",
            "geoname_id": null,
            "latitude": "46.8",
            "longitude": "4.43333",
            "city_name": "Le Creusot/Montceau",
            "timezone": "Europe/Paris"
        },
        {
            "id": "3231855",
            "gmt": "1",
            "city_id": "8291",
            "iata_code": "XED",
            "country_iso2": "FR",
            "geoname_id": null,
            "latitude": null,
            "longitude": null,
            "city_name": "Disneyland Paris",
            "timezone": "Europe/Paris"
        },
        {
            "id": "3232080",
            "gmt": "1",
            "city_id": "8516",
            "iata_code": "XVS",
            "country_iso2": "FR",
            "geoname_id": "2971041",
            "latitude": "50.35",
            "longitude": "3.53333",
            "city_name": "Valenciennes",
            "timezone": "Europe/Paris"
        },
        {
            "id": "3232624",
            "gmt": "1",
            "city_id": "9060",
            "iata_code": "ZAF",
            "country_iso2": "FR",
            "geoname_id": null,
            "latitude": "39.120277",
            "longitude": "30.116945",
            "city_name": "Arles",
            "timezone": "Europe/Paris"
        },
        {
            "id": "3232631",
            "gmt": "1",
            "city_id": "9067",
            "iata_code": "ZAO",
            "country_iso2": "FR",
            "geoname_id": "2972315",
            "latitude": "44.45",
            "longitude": "1.45",
            "city_name": "Cahors",
            "timezone": "Europe/Paris"
        },
        {
            "id": "3232643",
            "gmt": "1",
            "city_id": "9079",
            "iata_code": "ZBH",
            "country_iso2": "FR",
            "geoname_id": null,
            "latitude": null,
            "longitude": null,
            "city_name": "Severac-le-Chateau",
            "timezone": "Europe/Paris"
        }
    ]
}